NAME,LAT,LON,CONT
"Statue of Liberty, New York City",40.68942022,-74.04441457,North America
"Grand Canyon, USA",36.10055981,-112.1123559,North America
"Niagara Falls, Canada & USA",43.09636654,-79.03826781,North America
"Chichen Itza, Mexico",20.68459037,-88.56719963,North America
"Central Park, New York City",40.78139861,-73.96613829,North America